[{
    "id": 130902,
    "areaCode": "130902",
    "name": "新华区",
    "pid": 1309,
    "shortName": "新华",
    "longitude": 116.86643,
    "latitude": 38.31438,
    "level": 3,
    "status": 1,
    "fullname": "河北省-沧州市-新华区"
}, {
    "id": 130903,
    "areaCode": "130903",
    "name": "运河区",
    "pid": 1309,
    "shortName": "运河",
    "longitude": 116.85706,
    "latitude": 38.31352,
    "level": 3,
    "status": 1,
    "fullname": "河北省-沧州市-运河区"
}, {
    "id": 130921,
    "areaCode": "130921",
    "name": "沧县",
    "pid": 1309,
    "shortName": "沧县",
    "longitude": 116.87817,
    "latitude": 38.29361,
    "level": 3,
    "status": 1,
    "fullname": "河北省-沧州市-沧县"
}, {
    "id": 130922,
    "areaCode": "130922",
    "name": "青县",
    "pid": 1309,
    "shortName": "青县",
    "longitude": 116.80316,
    "latitude": 38.58345,
    "level": 3,
    "status": 1,
    "fullname": "河北省-沧州市-青县"
}, {
    "id": 130923,
    "areaCode": "130923",
    "name": "东光县",
    "pid": 1309,
    "shortName": "东光",
    "longitude": 116.53668,
    "latitude": 37.8857,
    "level": 3,
    "status": 1,
    "fullname": "河北省-沧州市-东光县"
}, {
    "id": 130924,
    "areaCode": "130924",
    "name": "海兴县",
    "pid": 1309,
    "shortName": "海兴",
    "longitude": 117.49758,
    "latitude": 38.13958,
    "level": 3,
    "status": 1,
    "fullname": "河北省-沧州市-海兴县"
}, {
    "id": 130925,
    "areaCode": "130925",
    "name": "盐山县",
    "pid": 1309,
    "shortName": "盐山",
    "longitude": 117.23092,
    "latitude": 38.05647,
    "level": 3,
    "status": 1,
    "fullname": "河北省-沧州市-盐山县"
}, {
    "id": 130926,
    "areaCode": "130926",
    "name": "肃宁县",
    "pid": 1309,
    "shortName": "肃宁",
    "longitude": 115.82971,
    "latitude": 38.42272,
    "level": 3,
    "status": 1,
    "fullname": "河北省-沧州市-肃宁县"
}, {
    "id": 130927,
    "areaCode": "130927",
    "name": "南皮县",
    "pid": 1309,
    "shortName": "南皮",
    "longitude": 116.70224,
    "latitude": 38.04109,
    "level": 3,
    "status": 1,
    "fullname": "河北省-沧州市-南皮县"
}, {
    "id": 130928,
    "areaCode": "130928",
    "name": "吴桥县",
    "pid": 1309,
    "shortName": "吴桥",
    "longitude": 116.3847,
    "latitude": 37.62546,
    "level": 3,
    "status": 1,
    "fullname": "河北省-沧州市-吴桥县"
}, {
    "id": 130929,
    "areaCode": "130929",
    "name": "献县",
    "pid": 1309,
    "shortName": "献县",
    "longitude": 116.12695,
    "latitude": 38.19228,
    "level": 3,
    "status": 1,
    "fullname": "河北省-沧州市-献县"
}, {
    "id": 130930,
    "areaCode": "130930",
    "name": "孟村回族自治县",
    "pid": 1309,
    "shortName": "孟村",
    "longitude": 117.10412,
    "latitude": 38.05338,
    "level": 3,
    "status": 1,
    "fullname": "河北省-沧州市-孟村回族自治县"
}, {
    "id": 130981,
    "areaCode": "130981",
    "name": "泊头市",
    "pid": 1309,
    "shortName": "泊头",
    "longitude": 116.57824,
    "latitude": 38.08359,
    "level": 3,
    "status": 1,
    "fullname": "河北省-沧州市-泊头市"
}, {
    "id": 130982,
    "areaCode": "130982",
    "name": "任丘市",
    "pid": 1309,
    "shortName": "任丘",
    "longitude": 116.1033,
    "latitude": 38.71124,
    "level": 3,
    "status": 1,
    "fullname": "河北省-沧州市-任丘市"
}, {
    "id": 130983,
    "areaCode": "130983",
    "name": "黄骅市",
    "pid": 1309,
    "shortName": "黄骅",
    "longitude": 117.33883,
    "latitude": 38.3706,
    "level": 3,
    "status": 1,
    "fullname": "河北省-沧州市-黄骅市"
}, {
    "id": 130984,
    "areaCode": "130984",
    "name": "河间市",
    "pid": 1309,
    "shortName": "河间",
    "longitude": 116.0993,
    "latitude": 38.44549,
    "level": 3,
    "status": 1,
    "fullname": "河北省-沧州市-河间市"
}, {
    "id": 130994,
    "areaCode": "130994",
    "name": "渤海新区",
    "pid": 1309,
    "shortName": "渤海新区",
    "longitude": 117.772562,
    "latitude": 38.269508,
    "level": 3,
    "status": 1,
    "isDevelop": true,
    "fullname": "河北省-沧州市-渤海新区"
}, {
    "id": 130997,
    "areaCode": "130997",
    "name": "渤西分局",
    "pid": 1309,
    "shortName": "渤西分局",
    "level": 3,
    "status": 1,
    "isDevelop": true,
    "comment": "",
    "fullname": "河北省-沧州市-渤西分局"
}, {
    "id": 130998,
    "areaCode": "130998",
    "name": "高新技术产业开发区",
    "pid": 1309,
    "shortName": "高新技术产业开发区",
    "longitude": 116.802042,
    "latitude": 38.339873,
    "level": 3,
    "status": 1,
    "isDevelop": true,
    "fullname": "河北省-沧州市-高新技术产业开发区"
}, {
    "id": 130999,
    "areaCode": "130999",
    "name": "经济开发区",
    "pid": 1309,
    "shortName": "经济开发区",
    "longitude": 117.520393,
    "latitude": 38.356305,
    "level": 3,
    "status": 1,
    "isDevelop": true,
    "fullname": "河北省-沧州市-经济开发区"
}]